[
  {
    "codigo": "A806",
    "nome": "Florianópolis",
    "lat": -27.5954,
    "lon": -48.548,
    "altitude": 11.13
  },
  {
    "codigo": "A826",
    "nome": "Joinville",
    "lat": -26.2306,
    "lon": -48.8447,
    "altitude": 4.0
  },
  {
    "codigo": "A822",
    "nome": "Blumenau",
    "lat": -26.906,
    "lon": -49.079,
    "altitude": 14.0
  },
  {
    "codigo": "A853",
    "nome": "Chapecó",
    "lat": -27.1001,
    "lon": -52.6143,
    "altitude": 679.0
  },
  {
    "codigo": "A849",
    "nome": "Lages",
    "lat": -27.8011,
    "lon": -50.3291,
    "altitude": 937.0
  },
  {
    "codigo": "A856",
    "nome": "Criciúma",
    "lat": -28.6749,
    "lon": -49.3688,
    "altitude": 46.0
  },
  {
    "codigo": "A852",
    "nome": "Caçador",
    "lat": -26.7703,
    "lon": -51.0183,
    "altitude": 960.0
  },
  {
    "codigo": "A809",
    "nome": "Itajaí",
    "lat": -26.9052,
    "lon": -48.6546,
    "altitude": 4.0
  },
  {
    "codigo": "A823",
    "nome": "Campos Novos",
    "lat": -27.402,
    "lon": -51.2127,
    "altitude": 940.0
  },
  {
    "codigo": "A832",
    "nome": "São Joaquim",
    "lat": -28.2957,
    "lon": -49.9316,
    "altitude": 1415.0
  },
  {
    "codigo": "A858",
    "nome": "Araranguá",
    "lat": -28.933,
    "lon": -49.4875,
    "altitude": 16.0
  },
  {
    "codigo": "A848",
    "nome": "Curitibanos",
    "lat": -27.2847,
    "lon": -50.5949,
    "altitude": 987.0
  },
  {
    "codigo": "A862",
    "nome": "Xanxerê",
    "lat": -26.8759,
    "lon": -52.4002,
    "altitude": 793.0
  },
  {
    "codigo": "A827",
    "nome": "Mafra",
    "lat": -26.1144,
    "lon": -49.8027,
    "altitude": 795.0
  },
  {
    "codigo": "A807",
    "nome": "Laguna",
    "lat": -28.4805,
    "lon": -48.7806,
    "altitude": 6.0
  },
  {
    "codigo": "A801",
    "nome": "Urussanga",
    "lat": -28.522,
    "lon": -49.3167,
    "altitude": 48.0
  },
  {
    "codigo": "A861",
    "nome": "Concórdia",
    "lat": -27.2333,
    "lon": -52.0167,
    "altitude": 569.0
  },
  {
    "codigo": "A863",
    "nome": "São Miguel do Oeste",
    "lat": -26.726,
    "lon": -53.5046,
    "altitude": 653.0
  },
  {
    "codigo": "A876",
    "nome": "Dionísio Cerqueira",
    "lat": -26.2616,
    "lon": -53.6365,
    "altitude": 757.0
  },
  {
    "codigo": "A812",
    "nome": "Porto União",
    "lat": -26.2277,
    "lon": -51.0801,
    "altitude": 763.0
  }
]